2014-01-22 18:57:44,897 [main] DEBUG x.y - Starting System
2014-01-22 19:36:51,750 [Thread-3] DEBUG x.y - Global Positioning System Fix Data
Fix Taken at=12:35:19UTC 
Latitude=	 -48 deg 07.038' S
Longitude=11 deg 31.0' E
 Number Satellites=8
Horizontal Dilution=	0.9
Altitude=	545.4M
Height/geoid=46.9M 
Time Since last update=0.0
Station Id=	0.0
GEO Cords(-4807.038,1131.0) at Time=12:35:19
2014-01-22 19:36:52,551 [Thread-3] DEBUG x.y - 
2014-01-22 19:36:53,353 [Thread-3] DEBUG x.y - Global Positioning System Fix Data
Fix Taken at=12:35:19UTC 
Latitude=	 -48 deg 07.038' S
Longitude=11 deg 31.0' E
 Number Satellites=8
Horizontal Dilution=	0.9
Altitude=	545.4M
Height/geoid=46.9M 
Time Since last update=0.0
Station Id=	0.0
GEO Cords(-4807.038,1131.0) at Time=12:35:19
2014-01-22 19:36:54,155 [Thread-3] DEBUG x.y - Global Positioning System Fix Data
Fix Taken at=12:35:19UTC 
Latitude=	 -48 deg 07.038' S
Longitude=11 deg 31.0' E
 Number Satellites=8
Horizontal Dilution=	0.9
Altitude=	545.4M
Height/geoid=46.9M 
Time Since last update=0.0
Station Id=	0.0
GEO Cords(-4807.038,1131.0) at Time=12:35:19
2014-01-22 19:36:54,958 [Thread-3] DEBUG x.y - Global Positioning System Fix Data
Fix Taken at=12:35:19UTC 
Latitude=	 -48 deg 07.038' S
Longitude=11 deg 31.0' E
 Number Satellites=8
Horizontal Dilution=	0.9
Altitude=	545.4M
Height/geoid=46.9M 
Time Since last update=0.0
Station Id=	0.0
GEO Cords(-4807.038,1131.0) at Time=12:35:19
2014-01-22 19:36:55,760 [Thread-3] DEBUG x.y - Global Positioning System Fix Data
Fix Taken at=12:35:19UTC 
Latitude=	 -48 deg 07.038' S
Longitude=11 deg 31.0' E
 Number Satellites=8
Horizontal Dilution=	0.9
Altitude=	545.4M
Height/geoid=46.9M 
Time Since last update=0.0
Station Id=	0.0
GEO Cords(-4807.038,1131.0) at Time=12:35:19
2014-01-22 19:36:56,563 [Thread-3] DEBUG x.y - Global Positioning System Fix Data
Fix Taken at=12:35:19UTC 
Latitude=	 -48 deg 07.038' S
Longitude=11 deg 31.0' E
 Number Satellites=8
Horizontal Dilution=	0.9
Altitude=	545.4M
Height/geoid=46.9M 
Time Since last update=0.0
Station Id=	0.0
GEO Cords(-4807.038,1131.0) at Time=12:35:19
2014-01-22 19:36:57,364 [Thread-3] DEBUG x.y - Global Positioning System Fix Data
Fix Taken at=12:35:19UTC 
Latitude=	 -48 deg 07.038' S
Longitude=11 deg 31.0' E
 Number Satellites=8
Horizontal Dilution=	0.9
Altitude=	545.4M
Height/geoid=46.9M 
Time Since last update=0.0
Station Id=	0.0
GEO Cords(-4807.038,1131.0) at Time=12:35:19
2014-01-22 19:36:58,165 [Thread-3] DEBUG x.y - Global Positioning System Fix Data
Fix Taken at=12:35:19UTC 
Latitude=	 -48 deg 07.038' S
Longitude=11 deg 31.0' E
 Number Satellites=8
Horizontal Dilution=	0.9
Altitude=	545.4M
Height/geoid=46.9M 
Time Since last update=0.0
Station Id=	0.0
GEO Cords(-4807.038,1131.0) at Time=12:35:19
2014-01-22 19:36:58,967 [Thread-3] DEBUG x.y - Global Positioning System Fix Data
Fix Taken at=12:35:19UTC 
Latitude=	 -48 deg 07.038' S
Longitude=11 deg 31.0' E
 Number Satellites=8
Horizontal Dilution=	0.9
Altitude=	545.4M
Height/geoid=46.9M 
Time Since last update=0.0
Station Id=	0.0
GEO Cords(-4807.038,1131.0) at Time=12:35:19
2014-01-22 19:36:59,768 [Thread-3] DEBUG x.y - Global Positioning System Fix Data
Fix Taken at=12:35:19UTC 
Latitude=	 -48 deg 07.038' S
Longitude=11 deg 31.0' E
 Number Satellites=8
Horizontal Dilution=	0.9
Altitude=	545.4M
Height/geoid=46.9M 
Time Since last update=0.0
Station Id=	0.0
GEO Cords(-4807.038,1131.0) at Time=12:35:19
2014-01-22 19:37:00,570 [Thread-3] DEBUG x.y - Global Positioning System Fix Data
Fix Taken at=12:35:19UTC 
Latitude=	 -48 deg 07.038' S
Longitude=11 deg 31.0' E
 Number Satellites=8
Horizontal Dilution=	0.9
Altitude=	545.4M
Height/geoid=46.9M 
Time Since last update=0.0
Station Id=	0.0
GEO Cords(-4807.038,1131.0) at Time=12:35:19
2014-01-22 19:37:01,372 [Thread-3] DEBUG x.y - Global Positioning System Fix Data
Fix Taken at=12:35:19UTC 
Latitude=	 -48 deg 07.038' S
Longitude=11 deg 31.0' E
 Number Satellites=8
Horizontal Dilution=	0.9
Altitude=	545.4M
Height/geoid=46.9M 
Time Since last update=0.0
Station Id=	0.0
GEO Cords(-4807.038,1131.0) at Time=12:35:19
2014-01-22 19:37:02,973 [Thread-3] DEBUG x.y - Global Positioning System Fix Data
Fix Taken at=12:35:19UTC 
Latitude=	 48 deg 07.038' N
Longitude=11 deg 31.0' E
 Number Satellites=8
Horizontal Dilution=	0.9
Altitude=	545.4M
Height/geoid=46.9M 
Time Since last update=0.0
Station Id=	0.0
GEO Cords(4807.038,1131.0) at Time=12:35:19
2014-01-22 19:37:05,375 [Thread-3] DEBUG x.y - Global Positioning System Fix Data
Fix Taken at=12:35:19UTC 
Latitude=	 48 deg 07.038' N
Longitude=-11 deg 31.0' W
 Number Satellites=8
Horizontal Dilution=	0.9
Altitude=	545.4M
Height/geoid=46.9M 
Time Since last update=0.0
Station Id=	0.0
GEO Cords(4807.038,-1131.0) at Time=12:35:19
2014-01-22 19:37:07,777 [Thread-3] DEBUG x.y - Global Positioning System Fix Data
Fix Taken at=12:35:19UTC 
Latitude=	 -48 deg 07.038' S
Longitude=11 deg 31.0' E
 Number Satellites=8
Horizontal Dilution=	0.9
Altitude=	545.4M
Height/geoid=46.9M 
Time Since last update=0.0
Station Id=	0.0
GEO Cords(-4807.038,1131.0) at Time=12:35:19
2014-01-22 19:37:08,577 [Thread-3] DEBUG x.y - 
2014-01-22 19:37:09,378 [Thread-3] DEBUG x.y - Global Positioning System Fix Data
Fix Taken at=12:35:19UTC 
Latitude=	 -48 deg 07.038' S
Longitude=11 deg 31.0' E
 Number Satellites=8
Horizontal Dilution=	0.9
Altitude=	545.4M
Height/geoid=46.9M 
Time Since last update=0.0
Station Id=	0.0
GEO Cords(-4807.038,1131.0) at Time=12:35:19
2014-01-22 19:37:10,179 [Thread-3] DEBUG x.y - Global Positioning System Fix Data
Fix Taken at=12:35:19UTC 
Latitude=	 -48 deg 07.038' S
Longitude=11 deg 31.0' E
 Number Satellites=8
Horizontal Dilution=	0.9
Altitude=	545.4M
Height/geoid=46.9M 
Time Since last update=0.0
Station Id=	0.0
GEO Cords(-4807.038,1131.0) at Time=12:35:19
2014-01-22 19:37:10,980 [Thread-3] DEBUG x.y - Global Positioning System Fix Data
Fix Taken at=12:35:19UTC 
Latitude=	 -48 deg 07.038' S
Longitude=11 deg 31.0' E
 Number Satellites=8
Horizontal Dilution=	0.9
Altitude=	545.4M
Height/geoid=46.9M 
Time Since last update=0.0
Station Id=	0.0
GEO Cords(-4807.038,1131.0) at Time=12:35:19
2014-01-22 19:37:11,781 [Thread-3] DEBUG x.y - Global Positioning System Fix Data
Fix Taken at=12:35:19UTC 
Latitude=	 -48 deg 07.038' S
Longitude=11 deg 31.0' E
 Number Satellites=8
Horizontal Dilution=	0.9
Altitude=	545.4M
Height/geoid=46.9M 
Time Since last update=0.0
Station Id=	0.0
GEO Cords(-4807.038,1131.0) at Time=12:35:19
2014-01-22 19:37:12,582 [Thread-3] DEBUG x.y - Global Positioning System Fix Data
Fix Taken at=12:35:19UTC 
Latitude=	 -48 deg 07.038' S
Longitude=11 deg 31.0' E
 Number Satellites=8
Horizontal Dilution=	0.9
Altitude=	545.4M
Height/geoid=46.9M 
Time Since last update=0.0
Station Id=	0.0
GEO Cords(-4807.038,1131.0) at Time=12:35:19
2014-01-22 19:37:13,383 [Thread-3] DEBUG x.y - Global Positioning System Fix Data
Fix Taken at=12:35:19UTC 
Latitude=	 -48 deg 07.038' S
Longitude=11 deg 31.0' E
 Number Satellites=8
Horizontal Dilution=	0.9
Altitude=	545.4M
Height/geoid=46.9M 
Time Since last update=0.0
Station Id=	0.0
GEO Cords(-4807.038,1131.0) at Time=12:35:19
2014-01-22 19:37:14,185 [Thread-3] DEBUG x.y - Global Positioning System Fix Data
Fix Taken at=12:35:19UTC 
Latitude=	 -48 deg 07.038' S
Longitude=11 deg 31.0' E
 Number Satellites=8
Horizontal Dilution=	0.9
Altitude=	545.4M
Height/geoid=46.9M 
Time Since last update=0.0
Station Id=	0.0
GEO Cords(-4807.038,1131.0) at Time=12:35:19
2014-01-22 19:37:14,986 [Thread-3] DEBUG x.y - Global Positioning System Fix Data
Fix Taken at=12:35:19UTC 
Latitude=	 -48 deg 07.038' S
Longitude=11 deg 31.0' E
 Number Satellites=8
Horizontal Dilution=	0.9
Altitude=	545.4M
Height/geoid=46.9M 
Time Since last update=0.0
Station Id=	0.0
GEO Cords(-4807.038,1131.0) at Time=12:35:19
2014-01-22 19:37:15,787 [Thread-3] DEBUG x.y - Global Positioning System Fix Data
Fix Taken at=12:35:19UTC 
Latitude=	 -48 deg 07.038' S
Longitude=11 deg 31.0' E
 Number Satellites=8
Horizontal Dilution=	0.9
Altitude=	545.4M
Height/geoid=46.9M 
Time Since last update=0.0
Station Id=	0.0
GEO Cords(-4807.038,1131.0) at Time=12:35:19
2014-01-22 19:37:16,588 [Thread-3] DEBUG x.y - Global Positioning System Fix Data
Fix Taken at=12:35:19UTC 
Latitude=	 -48 deg 07.038' S
Longitude=11 deg 31.0' E
 Number Satellites=8
Horizontal Dilution=	0.9
Altitude=	545.4M
Height/geoid=46.9M 
Time Since last update=0.0
Station Id=	0.0
GEO Cords(-4807.038,1131.0) at Time=12:35:19
2014-01-22 19:40:43,593 [Thread-3] DEBUG x.y - Received Stream=$GPGGA,123519,4807.038,S,01131.000,E,1,08,0.9,545.4,M,46.9,M,,*47
Global Positioning System Fix Data
Fix Taken at=12:35:19UTC 
Latitude=	 -48 deg 07.038' S
Longitude=11 deg 31.0' E
 Number Satellites=8
Horizontal Dilution=	0.9
Altitude=	545.4M
Height/geoid=46.9M 
Time Since last update=0.0
Station Id=	0.0
GEO Cords(-4807.038,1131.0) at Time=12:35:19

2014-01-22 19:40:44,394 [Thread-3] DEBUG x.y - Received Stream=$GPGGA,123519,4807.038,S,01131.000,E,1,08,0.9,545.4,M,46.9,M,,*47
Global Positioning System Fix Data
Fix Taken at=12:35:19UTC 
Latitude=	 -48 deg 07.038' S
Longitude=11 deg 31.0' E
 Number Satellites=8
Horizontal Dilution=	0.9
Altitude=	545.4M
Height/geoid=46.9M 
Time Since last update=0.0
Station Id=	0.0
GEO Cords(-4807.038,1131.0) at Time=12:35:19

2014-01-22 19:40:45,195 [Thread-3] DEBUG x.y - Received Stream=$GPGGA,123519,4807.038,S,01131.000,E,1,08,0.9,545.4,M,46.9,M,,*47
Global Positioning System Fix Data
Fix Taken at=12:35:19UTC 
Latitude=	 -48 deg 07.038' S
Longitude=11 deg 31.0' E
 Number Satellites=8
Horizontal Dilution=	0.9
Altitude=	545.4M
Height/geoid=46.9M 
Time Since last update=0.0
Station Id=	0.0
GEO Cords(-4807.038,1131.0) at Time=12:35:19

2014-01-22 19:40:45,996 [Thread-3] DEBUG x.y - Received Stream=$GPGGA,123519,4807.038,S,01131.000,E,1,08,0.9,545.4,M,46.9,M,,*47
Global Positioning System Fix Data
Fix Taken at=12:35:19UTC 
Latitude=	 -48 deg 07.038' S
Longitude=11 deg 31.0' E
 Number Satellites=8
Horizontal Dilution=	0.9
Altitude=	545.4M
Height/geoid=46.9M 
Time Since last update=0.0
Station Id=	0.0
GEO Cords(-4807.038,1131.0) at Time=12:35:19

2014-01-22 19:40:46,797 [Thread-3] DEBUG x.y - Received Stream=$GPGGA,123519,4807.038,S,01131.000,E,1,08,0.9,545.4,M,46.9,M,,*47
Global Positioning System Fix Data
Fix Taken at=12:35:19UTC 
Latitude=	 -48 deg 07.038' S
Longitude=11 deg 31.0' E
 Number Satellites=8
Horizontal Dilution=	0.9
Altitude=	545.4M
Height/geoid=46.9M 
Time Since last update=0.0
Station Id=	0.0
GEO Cords(-4807.038,1131.0) at Time=12:35:19

2014-01-22 19:40:47,599 [Thread-3] DEBUG x.y - Received Stream=$GPGGA,123519,4807.038,S,01131.000,E,1,08,0.9,545.4,M,46.9,M,,*47
Global Positioning System Fix Data
Fix Taken at=12:35:19UTC 
Latitude=	 -48 deg 07.038' S
Longitude=11 deg 31.0' E
 Number Satellites=8
Horizontal Dilution=	0.9
Altitude=	545.4M
Height/geoid=46.9M 
Time Since last update=0.0
Station Id=	0.0
GEO Cords(-4807.038,1131.0) at Time=12:35:19

2014-01-22 19:40:48,401 [Thread-3] DEBUG x.y - Received Stream=$GPGGA,123519,4807.038,S,01131.000,E,1,08,0.9,545.4,M,46.9,M,,*47
Global Positioning System Fix Data
Fix Taken at=12:35:19UTC 
Latitude=	 -48 deg 07.038' S
Longitude=11 deg 31.0' E
 Number Satellites=8
Horizontal Dilution=	0.9
Altitude=	545.4M
Height/geoid=46.9M 
Time Since last update=0.0
Station Id=	0.0
GEO Cords(-4807.038,1131.0) at Time=12:35:19

2014-01-22 19:40:49,204 [Thread-3] DEBUG x.y - Received Stream=$GPGGA,123519,4807.038,S,01131.000,E,1,08,0.9,545.4,M,46.9,M,,*47
Global Positioning System Fix Data
Fix Taken at=12:35:19UTC 
Latitude=	 -48 deg 07.038' S
Longitude=11 deg 31.0' E
 Number Satellites=8
Horizontal Dilution=	0.9
Altitude=	545.4M
Height/geoid=46.9M 
Time Since last update=0.0
Station Id=	0.0
GEO Cords(-4807.038,1131.0) at Time=12:35:19

2014-01-22 19:40:50,006 [Thread-3] DEBUG x.y - Received Stream=$GPGGA,123519,4807.038,S,01131.000,E,1,08,0.9,545.4,M,46.9,M,,*47
Global Positioning System Fix Data
Fix Taken at=12:35:19UTC 
Latitude=	 -48 deg 07.038' S
Longitude=11 deg 31.0' E
 Number Satellites=8
Horizontal Dilution=	0.9
Altitude=	545.4M
Height/geoid=46.9M 
Time Since last update=0.0
Station Id=	0.0
GEO Cords(-4807.038,1131.0) at Time=12:35:19

2014-01-22 19:40:50,807 [Thread-3] DEBUG x.y - Received Stream=$GPGGA,123519,4807.038,S,01131.000,E,1,08,0.9,545.4,M,46.9,M,,*47
Global Positioning System Fix Data
Fix Taken at=12:35:19UTC 
Latitude=	 -48 deg 07.038' S
Longitude=11 deg 31.0' E
 Number Satellites=8
Horizontal Dilution=	0.9
Altitude=	545.4M
Height/geoid=46.9M 
Time Since last update=0.0
Station Id=	0.0
GEO Cords(-4807.038,1131.0) at Time=12:35:19

2014-01-22 19:40:51,609 [Thread-3] DEBUG x.y - Received Stream=$GPGGA,123519,4807.038,S,01131.000,E,1,08,0.9,545.4,M,46.9,M,,*47
Global Positioning System Fix Data
Fix Taken at=12:35:19UTC 
Latitude=	 -48 deg 07.038' S
Longitude=11 deg 31.0' E
 Number Satellites=8
Horizontal Dilution=	0.9
Altitude=	545.4M
Height/geoid=46.9M 
Time Since last update=0.0
Station Id=	0.0
GEO Cords(-4807.038,1131.0) at Time=12:35:19

2014-01-22 19:40:53,210 [Thread-3] DEBUG x.y - Received Stream=$GPGGA,123519,4807.038,N,01131.000,E,1,08,0.9,545.4,M,46.9,M,,*47
Global Positioning System Fix Data
Fix Taken at=12:35:19UTC 
Latitude=	 48 deg 07.038' N
Longitude=11 deg 31.0' E
 Number Satellites=8
Horizontal Dilution=	0.9
Altitude=	545.4M
Height/geoid=46.9M 
Time Since last update=0.0
Station Id=	0.0
GEO Cords(4807.038,1131.0) at Time=12:35:19

2014-01-22 19:40:55,612 [Thread-3] DEBUG x.y - Received Stream=$GPGGA,123519,4807.038,N,01131.000,W,1,08,0.9,545.4,M,46.9,M,,*47
Global Positioning System Fix Data
Fix Taken at=12:35:19UTC 
Latitude=	 48 deg 07.038' N
Longitude=-11 deg 31.0' W
 Number Satellites=8
Horizontal Dilution=	0.9
Altitude=	545.4M
Height/geoid=46.9M 
Time Since last update=0.0
Station Id=	0.0
GEO Cords(4807.038,-1131.0) at Time=12:35:19

2014-01-22 19:40:58,013 [Thread-3] DEBUG x.y - Received Stream=$GPGGA,123519,4807.038,S,01131.000,E,1,08,0.9,545.4,M,46.9,M,,*47
Global Positioning System Fix Data
Fix Taken at=12:35:19UTC 
Latitude=	 -48 deg 07.038' S
Longitude=11 deg 31.0' E
 Number Satellites=8
Horizontal Dilution=	0.9
Altitude=	545.4M
Height/geoid=46.9M 
Time Since last update=0.0
Station Id=	0.0
GEO Cords(-4807.038,1131.0) at Time=12:35:19

2014-01-22 19:40:58,814 [Thread-3] DEBUG x.y - Received Stream=$GPGSA,A,3,04,05,,09,12,,,24,,,,,2.5,1.3,2.1*39


2014-01-22 19:40:59,615 [Thread-3] DEBUG x.y - Received Stream=$GPGGA,123519,4807.038,S,01131.000,E,1,08,0.9,545.4,M,46.9,M,,*47
Global Positioning System Fix Data
Fix Taken at=12:35:19UTC 
Latitude=	 -48 deg 07.038' S
Longitude=11 deg 31.0' E
 Number Satellites=8
Horizontal Dilution=	0.9
Altitude=	545.4M
Height/geoid=46.9M 
Time Since last update=0.0
Station Id=	0.0
GEO Cords(-4807.038,1131.0) at Time=12:35:19

2014-01-22 19:41:00,416 [Thread-3] DEBUG x.y - Received Stream=$GPGGA,123519,4807.038,S,01131.000,E,1,08,0.9,545.4,M,46.9,M,,*47
Global Positioning System Fix Data
Fix Taken at=12:35:19UTC 
Latitude=	 -48 deg 07.038' S
Longitude=11 deg 31.0' E
 Number Satellites=8
Horizontal Dilution=	0.9
Altitude=	545.4M
Height/geoid=46.9M 
Time Since last update=0.0
Station Id=	0.0
GEO Cords(-4807.038,1131.0) at Time=12:35:19

2014-01-22 19:41:01,216 [Thread-3] DEBUG x.y - Received Stream=$GPGGA,123519,4807.038,S,01131.000,E,1,08,0.9,545.4,M,46.9,M,,*47
Global Positioning System Fix Data
Fix Taken at=12:35:19UTC 
Latitude=	 -48 deg 07.038' S
Longitude=11 deg 31.0' E
 Number Satellites=8
Horizontal Dilution=	0.9
Altitude=	545.4M
Height/geoid=46.9M 
Time Since last update=0.0
Station Id=	0.0
GEO Cords(-4807.038,1131.0) at Time=12:35:19

2014-01-22 19:41:02,018 [Thread-3] DEBUG x.y - Received Stream=$GPGGA,123519,4807.038,S,01131.000,E,1,08,0.9,545.4,M,46.9,M,,*47
Global Positioning System Fix Data
Fix Taken at=12:35:19UTC 
Latitude=	 -48 deg 07.038' S
Longitude=11 deg 31.0' E
 Number Satellites=8
Horizontal Dilution=	0.9
Altitude=	545.4M
Height/geoid=46.9M 
Time Since last update=0.0
Station Id=	0.0
GEO Cords(-4807.038,1131.0) at Time=12:35:19

2014-01-22 19:41:02,820 [Thread-3] DEBUG x.y - Received Stream=$GPGGA,123519,4807.038,S,01131.000,E,1,08,0.9,545.4,M,46.9,M,,*47
Global Positioning System Fix Data
Fix Taken at=12:35:19UTC 
Latitude=	 -48 deg 07.038' S
Longitude=11 deg 31.0' E
 Number Satellites=8
Horizontal Dilution=	0.9
Altitude=	545.4M
Height/geoid=46.9M 
Time Since last update=0.0
Station Id=	0.0
GEO Cords(-4807.038,1131.0) at Time=12:35:19

2014-01-22 19:41:03,621 [Thread-3] DEBUG x.y - Received Stream=$GPGGA,123519,4807.038,S,01131.000,E,1,08,0.9,545.4,M,46.9,M,,*47
Global Positioning System Fix Data
Fix Taken at=12:35:19UTC 
Latitude=	 -48 deg 07.038' S
Longitude=11 deg 31.0' E
 Number Satellites=8
Horizontal Dilution=	0.9
Altitude=	545.4M
Height/geoid=46.9M 
Time Since last update=0.0
Station Id=	0.0
GEO Cords(-4807.038,1131.0) at Time=12:35:19

2014-01-22 19:41:04,423 [Thread-3] DEBUG x.y - Received Stream=$GPGGA,123519,4807.038,S,01131.000,E,1,08,0.9,545.4,M,46.9,M,,*47
Global Positioning System Fix Data
Fix Taken at=12:35:19UTC 
Latitude=	 -48 deg 07.038' S
Longitude=11 deg 31.0' E
 Number Satellites=8
Horizontal Dilution=	0.9
Altitude=	545.4M
Height/geoid=46.9M 
Time Since last update=0.0
Station Id=	0.0
GEO Cords(-4807.038,1131.0) at Time=12:35:19

2014-01-22 19:41:05,225 [Thread-3] DEBUG x.y - Received Stream=$GPGGA,123519,4807.038,S,01131.000,E,1,08,0.9,545.4,M,46.9,M,,*47
Global Positioning System Fix Data
Fix Taken at=12:35:19UTC 
Latitude=	 -48 deg 07.038' S
Longitude=11 deg 31.0' E
 Number Satellites=8
Horizontal Dilution=	0.9
Altitude=	545.4M
Height/geoid=46.9M 
Time Since last update=0.0
Station Id=	0.0
GEO Cords(-4807.038,1131.0) at Time=12:35:19

2014-01-22 19:41:06,026 [Thread-3] DEBUG x.y - Received Stream=$GPGGA,123519,4807.038,S,01131.000,E,1,08,0.9,545.4,M,46.9,M,,*47
Global Positioning System Fix Data
Fix Taken at=12:35:19UTC 
Latitude=	 -48 deg 07.038' S
Longitude=11 deg 31.0' E
 Number Satellites=8
Horizontal Dilution=	0.9
Altitude=	545.4M
Height/geoid=46.9M 
Time Since last update=0.0
Station Id=	0.0
GEO Cords(-4807.038,1131.0) at Time=12:35:19

2014-01-22 19:41:06,828 [Thread-3] DEBUG x.y - Received Stream=$GPGGA,123519,4807.038,S,01131.000,E,1,08,0.9,545.4,M,46.9,M,,*47
Global Positioning System Fix Data
Fix Taken at=12:35:19UTC 
Latitude=	 -48 deg 07.038' S
Longitude=11 deg 31.0' E
 Number Satellites=8
Horizontal Dilution=	0.9
Altitude=	545.4M
Height/geoid=46.9M 
Time Since last update=0.0
Station Id=	0.0
GEO Cords(-4807.038,1131.0) at Time=12:35:19

2014-01-22 19:41:07,630 [Thread-3] DEBUG x.y - Received Stream=$GPGGA,123519,4807.038,S,01131.000,E,1,08,0.9,545.4,M,46.9,M,,*47
Global Positioning System Fix Data
Fix Taken at=12:35:19UTC 
Latitude=	 -48 deg 07.038' S
Longitude=11 deg 31.0' E
 Number Satellites=8
Horizontal Dilution=	0.9
Altitude=	545.4M
Height/geoid=46.9M 
Time Since last update=0.0
Station Id=	0.0
GEO Cords(-4807.038,1131.0) at Time=12:35:19

2014-01-22 19:41:09,231 [Thread-3] DEBUG x.y - Received Stream=$GPGGA,123519,4807.038,N,01131.000,E,1,08,0.9,545.4,M,46.9,M,,*47
Global Positioning System Fix Data
Fix Taken at=12:35:19UTC 
Latitude=	 48 deg 07.038' N
Longitude=11 deg 31.0' E
 Number Satellites=8
Horizontal Dilution=	0.9
Altitude=	545.4M
Height/geoid=46.9M 
Time Since last update=0.0
Station Id=	0.0
GEO Cords(4807.038,1131.0) at Time=12:35:19

2014-01-22 19:41:11,632 [Thread-3] DEBUG x.y - Received Stream=$GPGGA,123519,4807.038,N,01131.000,W,1,08,0.9,545.4,M,46.9,M,,*47
Global Positioning System Fix Data
Fix Taken at=12:35:19UTC 
Latitude=	 48 deg 07.038' N
Longitude=-11 deg 31.0' W
 Number Satellites=8
Horizontal Dilution=	0.9
Altitude=	545.4M
Height/geoid=46.9M 
Time Since last update=0.0
Station Id=	0.0
GEO Cords(4807.038,-1131.0) at Time=12:35:19

2014-01-22 19:41:14,033 [Thread-3] DEBUG x.y - Received Stream=$GPGGA,123519,4807.038,S,01131.000,E,1,08,0.9,545.4,M,46.9,M,,*47
Global Positioning System Fix Data
Fix Taken at=12:35:19UTC 
Latitude=	 -48 deg 07.038' S
Longitude=11 deg 31.0' E
 Number Satellites=8
Horizontal Dilution=	0.9
Altitude=	545.4M
Height/geoid=46.9M 
Time Since last update=0.0
Station Id=	0.0
GEO Cords(-4807.038,1131.0) at Time=12:35:19

2014-01-22 19:41:14,834 [Thread-3] DEBUG x.y - Received Stream=$GPGSA,A,3,04,05,,09,12,,,24,,,,,2.5,1.3,2.1*39


2014-01-22 19:41:15,637 [Thread-3] DEBUG x.y - Received Stream=$GPGGA,123519,4807.038,S,01131.000,E,1,08,0.9,545.4,M,46.9,M,,*47
Global Positioning System Fix Data
Fix Taken at=12:35:19UTC 
Latitude=	 -48 deg 07.038' S
Longitude=11 deg 31.0' E
 Number Satellites=8
Horizontal Dilution=	0.9
Altitude=	545.4M
Height/geoid=46.9M 
Time Since last update=0.0
Station Id=	0.0
GEO Cords(-4807.038,1131.0) at Time=12:35:19

2014-01-22 19:41:16,439 [Thread-3] DEBUG x.y - Received Stream=$GPGGA,123519,4807.038,S,01131.000,E,1,08,0.9,545.4,M,46.9,M,,*47
Global Positioning System Fix Data
Fix Taken at=12:35:19UTC 
Latitude=	 -48 deg 07.038' S
Longitude=11 deg 31.0' E
 Number Satellites=8
Horizontal Dilution=	0.9
Altitude=	545.4M
Height/geoid=46.9M 
Time Since last update=0.0
Station Id=	0.0
GEO Cords(-4807.038,1131.0) at Time=12:35:19

2014-01-22 19:41:17,240 [Thread-3] DEBUG x.y - Received Stream=$GPGGA,123519,4807.038,S,01131.000,E,1,08,0.9,545.4,M,46.9,M,,*47
Global Positioning System Fix Data
Fix Taken at=12:35:19UTC 
Latitude=	 -48 deg 07.038' S
Longitude=11 deg 31.0' E
 Number Satellites=8
Horizontal Dilution=	0.9
Altitude=	545.4M
Height/geoid=46.9M 
Time Since last update=0.0
Station Id=	0.0
GEO Cords(-4807.038,1131.0) at Time=12:35:19

2014-01-22 19:41:18,041 [Thread-3] DEBUG x.y - Received Stream=$GPGGA,123519,4807.038,S,01131.000,E,1,08,0.9,545.4,M,46.9,M,,*47
Global Positioning System Fix Data
Fix Taken at=12:35:19UTC 
Latitude=	 -48 deg 07.038' S
Longitude=11 deg 31.0' E
 Number Satellites=8
Horizontal Dilution=	0.9
Altitude=	545.4M
Height/geoid=46.9M 
Time Since last update=0.0
Station Id=	0.0
GEO Cords(-4807.038,1131.0) at Time=12:35:19

2014-01-22 19:41:18,842 [Thread-3] DEBUG x.y - Received Stream=$GPGGA,123519,4807.038,S,01131.000,E,1,08,0.9,545.4,M,46.9,M,,*47
Global Positioning System Fix Data
Fix Taken at=12:35:19UTC 
Latitude=	 -48 deg 07.038' S
Longitude=11 deg 31.0' E
 Number Satellites=8
Horizontal Dilution=	0.9
Altitude=	545.4M
Height/geoid=46.9M 
Time Since last update=0.0
Station Id=	0.0
GEO Cords(-4807.038,1131.0) at Time=12:35:19

2014-01-22 19:41:19,644 [Thread-3] DEBUG x.y - Received Stream=$GPGGA,123519,4807.038,S,01131.000,E,1,08,0.9,545.4,M,46.9,M,,*47
Global Positioning System Fix Data
Fix Taken at=12:35:19UTC 
Latitude=	 -48 deg 07.038' S
Longitude=11 deg 31.0' E
 Number Satellites=8
Horizontal Dilution=	0.9
Altitude=	545.4M
Height/geoid=46.9M 
Time Since last update=0.0
Station Id=	0.0
GEO Cords(-4807.038,1131.0) at Time=12:35:19

2014-01-22 19:41:20,445 [Thread-3] DEBUG x.y - Received Stream=$GPGGA,123519,4807.038,S,01131.000,E,1,08,0.9,545.4,M,46.9,M,,*47
Global Positioning System Fix Data
Fix Taken at=12:35:19UTC 
Latitude=	 -48 deg 07.038' S
Longitude=11 deg 31.0' E
 Number Satellites=8
Horizontal Dilution=	0.9
Altitude=	545.4M
Height/geoid=46.9M 
Time Since last update=0.0
Station Id=	0.0
GEO Cords(-4807.038,1131.0) at Time=12:35:19

2014-01-22 19:41:21,246 [Thread-3] DEBUG x.y - Received Stream=$GPGGA,123519,4807.038,S,01131.000,E,1,08,0.9,545.4,M,46.9,M,,*47
Global Positioning System Fix Data
Fix Taken at=12:35:19UTC 
Latitude=	 -48 deg 07.038' S
Longitude=11 deg 31.0' E
 Number Satellites=8
Horizontal Dilution=	0.9
Altitude=	545.4M
Height/geoid=46.9M 
Time Since last update=0.0
Station Id=	0.0
GEO Cords(-4807.038,1131.0) at Time=12:35:19

2014-01-22 19:41:22,047 [Thread-3] DEBUG x.y - Received Stream=$GPGGA,123519,4807.038,S,01131.000,E,1,08,0.9,545.4,M,46.9,M,,*47
Global Positioning System Fix Data
Fix Taken at=12:35:19UTC 
Latitude=	 -48 deg 07.038' S
Longitude=11 deg 31.0' E
 Number Satellites=8
Horizontal Dilution=	0.9
Altitude=	545.4M
Height/geoid=46.9M 
Time Since last update=0.0
Station Id=	0.0
GEO Cords(-4807.038,1131.0) at Time=12:35:19

2014-01-22 19:41:22,848 [Thread-3] DEBUG x.y - Received Stream=$GPGGA,123519,4807.038,S,01131.000,E,1,08,0.9,545.4,M,46.9,M,,*47
Global Positioning System Fix Data
Fix Taken at=12:35:19UTC 
Latitude=	 -48 deg 07.038' S
Longitude=11 deg 31.0' E
 Number Satellites=8
Horizontal Dilution=	0.9
Altitude=	545.4M
Height/geoid=46.9M 
Time Since last update=0.0
Station Id=	0.0
GEO Cords(-4807.038,1131.0) at Time=12:35:19

2014-01-22 19:41:23,649 [Thread-3] DEBUG x.y - Received Stream=$GPGGA,123519,4807.038,S,01131.000,E,1,08,0.9,545.4,M,46.9,M,,*47
Global Positioning System Fix Data
Fix Taken at=12:35:19UTC 
Latitude=	 -48 deg 07.038' S
Longitude=11 deg 31.0' E
 Number Satellites=8
Horizontal Dilution=	0.9
Altitude=	545.4M
Height/geoid=46.9M 
Time Since last update=0.0
Station Id=	0.0
GEO Cords(-4807.038,1131.0) at Time=12:35:19

2014-01-22 19:41:25,250 [Thread-3] DEBUG x.y - Received Stream=$GPGGA,123519,4807.038,N,01131.000,E,1,08,0.9,545.4,M,46.9,M,,*47
Global Positioning System Fix Data
Fix Taken at=12:35:19UTC 
Latitude=	 48 deg 07.038' N
Longitude=11 deg 31.0' E
 Number Satellites=8
Horizontal Dilution=	0.9
Altitude=	545.4M
Height/geoid=46.9M 
Time Since last update=0.0
Station Id=	0.0
GEO Cords(4807.038,1131.0) at Time=12:35:19

2014-01-22 19:41:27,651 [Thread-3] DEBUG x.y - Received Stream=$GPGGA,123519,4807.038,N,01131.000,W,1,08,0.9,545.4,M,46.9,M,,*47
Global Positioning System Fix Data
Fix Taken at=12:35:19UTC 
Latitude=	 48 deg 07.038' N
Longitude=-11 deg 31.0' W
 Number Satellites=8
Horizontal Dilution=	0.9
Altitude=	545.4M
Height/geoid=46.9M 
Time Since last update=0.0
Station Id=	0.0
GEO Cords(4807.038,-1131.0) at Time=12:35:19

2014-01-22 19:41:30,052 [Thread-3] DEBUG x.y - Received Stream=$GPGGA,123519,4807.038,S,01131.000,E,1,08,0.9,545.4,M,46.9,M,,*47
Global Positioning System Fix Data
Fix Taken at=12:35:19UTC 
Latitude=	 -48 deg 07.038' S
Longitude=11 deg 31.0' E
 Number Satellites=8
Horizontal Dilution=	0.9
Altitude=	545.4M
Height/geoid=46.9M 
Time Since last update=0.0
Station Id=	0.0
GEO Cords(-4807.038,1131.0) at Time=12:35:19

2014-01-22 19:41:30,853 [Thread-3] DEBUG x.y - Received Stream=$GPGSA,A,3,04,05,,09,12,,,24,,,,,2.5,1.3,2.1*39


2014-01-22 19:41:31,654 [Thread-3] DEBUG x.y - Received Stream=$GPGGA,123519,4807.038,S,01131.000,E,1,08,0.9,545.4,M,46.9,M,,*47
Global Positioning System Fix Data
Fix Taken at=12:35:19UTC 
Latitude=	 -48 deg 07.038' S
Longitude=11 deg 31.0' E
 Number Satellites=8
Horizontal Dilution=	0.9
Altitude=	545.4M
Height/geoid=46.9M 
Time Since last update=0.0
Station Id=	0.0
GEO Cords(-4807.038,1131.0) at Time=12:35:19

2014-01-22 19:41:32,455 [Thread-3] DEBUG x.y - Received Stream=$GPGGA,123519,4807.038,S,01131.000,E,1,08,0.9,545.4,M,46.9,M,,*47
Global Positioning System Fix Data
Fix Taken at=12:35:19UTC 
Latitude=	 -48 deg 07.038' S
Longitude=11 deg 31.0' E
 Number Satellites=8
Horizontal Dilution=	0.9
Altitude=	545.4M
Height/geoid=46.9M 
Time Since last update=0.0
Station Id=	0.0
GEO Cords(-4807.038,1131.0) at Time=12:35:19

2014-01-22 19:41:33,257 [Thread-3] DEBUG x.y - Received Stream=$GPGGA,123519,4807.038,S,01131.000,E,1,08,0.9,545.4,M,46.9,M,,*47
Global Positioning System Fix Data
Fix Taken at=12:35:19UTC 
Latitude=	 -48 deg 07.038' S
Longitude=11 deg 31.0' E
 Number Satellites=8
Horizontal Dilution=	0.9
Altitude=	545.4M
Height/geoid=46.9M 
Time Since last update=0.0
Station Id=	0.0
GEO Cords(-4807.038,1131.0) at Time=12:35:19

2014-01-22 19:41:34,058 [Thread-3] DEBUG x.y - Received Stream=$GPGGA,123519,4807.038,S,01131.000,E,1,08,0.9,545.4,M,46.9,M,,*47
Global Positioning System Fix Data
Fix Taken at=12:35:19UTC 
Latitude=	 -48 deg 07.038' S
Longitude=11 deg 31.0' E
 Number Satellites=8
Horizontal Dilution=	0.9
Altitude=	545.4M
Height/geoid=46.9M 
Time Since last update=0.0
Station Id=	0.0
GEO Cords(-4807.038,1131.0) at Time=12:35:19

2014-01-22 19:41:34,859 [Thread-3] DEBUG x.y - Received Stream=$GPGGA,123519,4807.038,S,01131.000,E,1,08,0.9,545.4,M,46.9,M,,*47
Global Positioning System Fix Data
Fix Taken at=12:35:19UTC 
Latitude=	 -48 deg 07.038' S
Longitude=11 deg 31.0' E
 Number Satellites=8
Horizontal Dilution=	0.9
Altitude=	545.4M
Height/geoid=46.9M 
Time Since last update=0.0
Station Id=	0.0
GEO Cords(-4807.038,1131.0) at Time=12:35:19

2014-01-22 19:41:35,660 [Thread-3] DEBUG x.y - Received Stream=$GPGGA,123519,4807.038,S,01131.000,E,1,08,0.9,545.4,M,46.9,M,,*47
Global Positioning System Fix Data
Fix Taken at=12:35:19UTC 
Latitude=	 -48 deg 07.038' S
Longitude=11 deg 31.0' E
 Number Satellites=8
Horizontal Dilution=	0.9
Altitude=	545.4M
Height/geoid=46.9M 
Time Since last update=0.0
Station Id=	0.0
GEO Cords(-4807.038,1131.0) at Time=12:35:19

2014-01-22 19:41:36,461 [Thread-3] DEBUG x.y - Received Stream=$GPGGA,123519,4807.038,S,01131.000,E,1,08,0.9,545.4,M,46.9,M,,*47
Global Positioning System Fix Data
Fix Taken at=12:35:19UTC 
Latitude=	 -48 deg 07.038' S
Longitude=11 deg 31.0' E
 Number Satellites=8
Horizontal Dilution=	0.9
Altitude=	545.4M
Height/geoid=46.9M 
Time Since last update=0.0
Station Id=	0.0
GEO Cords(-4807.038,1131.0) at Time=12:35:19

2014-01-22 19:41:37,263 [Thread-3] DEBUG x.y - Received Stream=$GPGGA,123519,4807.038,S,01131.000,E,1,08,0.9,545.4,M,46.9,M,,*47
Global Positioning System Fix Data
Fix Taken at=12:35:19UTC 
Latitude=	 -48 deg 07.038' S
Longitude=11 deg 31.0' E
 Number Satellites=8
Horizontal Dilution=	0.9
Altitude=	545.4M
Height/geoid=46.9M 
Time Since last update=0.0
Station Id=	0.0
GEO Cords(-4807.038,1131.0) at Time=12:35:19

2014-01-22 19:41:38,064 [Thread-3] DEBUG x.y - Received Stream=$GPGGA,123519,4807.038,S,01131.000,E,1,08,0.9,545.4,M,46.9,M,,*47
Global Positioning System Fix Data
Fix Taken at=12:35:19UTC 
Latitude=	 -48 deg 07.038' S
Longitude=11 deg 31.0' E
 Number Satellites=8
Horizontal Dilution=	0.9
Altitude=	545.4M
Height/geoid=46.9M 
Time Since last update=0.0
Station Id=	0.0
GEO Cords(-4807.038,1131.0) at Time=12:35:19

2014-01-22 19:41:38,865 [Thread-3] DEBUG x.y - Received Stream=$GPGGA,123519,4807.038,S,01131.000,E,1,08,0.9,545.4,M,46.9,M,,*47
Global Positioning System Fix Data
Fix Taken at=12:35:19UTC 
Latitude=	 -48 deg 07.038' S
Longitude=11 deg 31.0' E
 Number Satellites=8
Horizontal Dilution=	0.9
Altitude=	545.4M
Height/geoid=46.9M 
Time Since last update=0.0
Station Id=	0.0
GEO Cords(-4807.038,1131.0) at Time=12:35:19

2014-01-22 19:41:39,666 [Thread-3] DEBUG x.y - Received Stream=$GPGGA,123519,4807.038,S,01131.000,E,1,08,0.9,545.4,M,46.9,M,,*47
Global Positioning System Fix Data
Fix Taken at=12:35:19UTC 
Latitude=	 -48 deg 07.038' S
Longitude=11 deg 31.0' E
 Number Satellites=8
Horizontal Dilution=	0.9
Altitude=	545.4M
Height/geoid=46.9M 
Time Since last update=0.0
Station Id=	0.0
GEO Cords(-4807.038,1131.0) at Time=12:35:19

2014-01-22 19:41:41,267 [Thread-3] DEBUG x.y - Received Stream=$GPGGA,123519,4807.038,N,01131.000,E,1,08,0.9,545.4,M,46.9,M,,*47
Global Positioning System Fix Data
Fix Taken at=12:35:19UTC 
Latitude=	 48 deg 07.038' N
Longitude=11 deg 31.0' E
 Number Satellites=8
Horizontal Dilution=	0.9
Altitude=	545.4M
Height/geoid=46.9M 
Time Since last update=0.0
Station Id=	0.0
GEO Cords(4807.038,1131.0) at Time=12:35:19

2014-01-22 19:41:43,668 [Thread-3] DEBUG x.y - Received Stream=$GPGGA,123519,4807.038,N,01131.000,W,1,08,0.9,545.4,M,46.9,M,,*47
Global Positioning System Fix Data
Fix Taken at=12:35:19UTC 
Latitude=	 48 deg 07.038' N
Longitude=-11 deg 31.0' W
 Number Satellites=8
Horizontal Dilution=	0.9
Altitude=	545.4M
Height/geoid=46.9M 
Time Since last update=0.0
Station Id=	0.0
GEO Cords(4807.038,-1131.0) at Time=12:35:19

2014-01-22 19:41:46,070 [Thread-3] DEBUG x.y - Received Stream=$GPGGA,123519,4807.038,S,01131.000,E,1,08,0.9,545.4,M,46.9,M,,*47
Global Positioning System Fix Data
Fix Taken at=12:35:19UTC 
Latitude=	 -48 deg 07.038' S
Longitude=11 deg 31.0' E
 Number Satellites=8
Horizontal Dilution=	0.9
Altitude=	545.4M
Height/geoid=46.9M 
Time Since last update=0.0
Station Id=	0.0
GEO Cords(-4807.038,1131.0) at Time=12:35:19

2014-01-22 19:41:46,870 [Thread-3] DEBUG x.y - Received Stream=$GPGSA,A,3,04,05,,09,12,,,24,,,,,2.5,1.3,2.1*39


2014-01-22 19:41:47,672 [Thread-3] DEBUG x.y - Received Stream=$GPGGA,123519,4807.038,S,01131.000,E,1,08,0.9,545.4,M,46.9,M,,*47
Global Positioning System Fix Data
Fix Taken at=12:35:19UTC 
Latitude=	 -48 deg 07.038' S
Longitude=11 deg 31.0' E
 Number Satellites=8
Horizontal Dilution=	0.9
Altitude=	545.4M
Height/geoid=46.9M 
Time Since last update=0.0
Station Id=	0.0
GEO Cords(-4807.038,1131.0) at Time=12:35:19

2014-01-22 19:41:48,473 [Thread-3] DEBUG x.y - Received Stream=$GPGGA,123519,4807.038,S,01131.000,E,1,08,0.9,545.4,M,46.9,M,,*47
Global Positioning System Fix Data
Fix Taken at=12:35:19UTC 
Latitude=	 -48 deg 07.038' S
Longitude=11 deg 31.0' E
 Number Satellites=8
Horizontal Dilution=	0.9
Altitude=	545.4M
Height/geoid=46.9M 
Time Since last update=0.0
Station Id=	0.0
GEO Cords(-4807.038,1131.0) at Time=12:35:19

2014-01-22 19:41:49,275 [Thread-3] DEBUG x.y - Received Stream=$GPGGA,123519,4807.038,S,01131.000,E,1,08,0.9,545.4,M,46.9,M,,*47
Global Positioning System Fix Data
Fix Taken at=12:35:19UTC 
Latitude=	 -48 deg 07.038' S
Longitude=11 deg 31.0' E
 Number Satellites=8
Horizontal Dilution=	0.9
Altitude=	545.4M
Height/geoid=46.9M 
Time Since last update=0.0
Station Id=	0.0
GEO Cords(-4807.038,1131.0) at Time=12:35:19

2014-01-22 19:41:50,080 [Thread-3] DEBUG x.y - Received Stream=$GPGGA,123519,4807.038,S,01131.000,E,1,08,0.9,545.4,M,46.9,M,,*47
Global Positioning System Fix Data
Fix Taken at=12:35:19UTC 
Latitude=	 -48 deg 07.038' S
Longitude=11 deg 31.0' E
 Number Satellites=8
Horizontal Dilution=	0.9
Altitude=	545.4M
Height/geoid=46.9M 
Time Since last update=0.0
Station Id=	0.0
GEO Cords(-4807.038,1131.0) at Time=12:35:19

2014-01-22 19:41:50,882 [Thread-3] DEBUG x.y - Received Stream=$GPGGA,123519,4807.038,S,01131.000,E,1,08,0.9,545.4,M,46.9,M,,*47
Global Positioning System Fix Data
Fix Taken at=12:35:19UTC 
Latitude=	 -48 deg 07.038' S
Longitude=11 deg 31.0' E
 Number Satellites=8
Horizontal Dilution=	0.9
Altitude=	545.4M
Height/geoid=46.9M 
Time Since last update=0.0
Station Id=	0.0
GEO Cords(-4807.038,1131.0) at Time=12:35:19

2014-01-22 19:41:51,684 [Thread-3] DEBUG x.y - Received Stream=$GPGGA,123519,4807.038,S,01131.000,E,1,08,0.9,545.4,M,46.9,M,,*47
Global Positioning System Fix Data
Fix Taken at=12:35:19UTC 
Latitude=	 -48 deg 07.038' S
Longitude=11 deg 31.0' E
 Number Satellites=8
Horizontal Dilution=	0.9
Altitude=	545.4M
Height/geoid=46.9M 
Time Since last update=0.0
Station Id=	0.0
GEO Cords(-4807.038,1131.0) at Time=12:35:19

2014-01-22 19:44:05,644 [Thread-3] DEBUG x.y - Received Stream=$GPGGA,123519,4807.038,S,01131.000,E,1,08,0.9,545.4,M,46.9,M,,*47
------Processed Result----
Global Positioning System Fix Data
Fix Taken at=	12:35:19UTC 
Latitude=	 -48 deg 07.038' S
Longitude=	11 deg 31.0' E
 Number Satellites=	8
Horizontal Dilution=	0.9
Altitude=	545.4M
Height/geoid=	46.9M 
Time Since last update=	0.0
Station Id=	0.0
GEO Cords(-4807.038,1131.0) at Time=12:35:19

2014-01-22 19:44:06,447 [Thread-3] DEBUG x.y - Received Stream=$GPGGA,123519,4807.038,S,01131.000,E,1,08,0.9,545.4,M,46.9,M,,*47
------Processed Result----
Global Positioning System Fix Data
Fix Taken at=	12:35:19UTC 
Latitude=	 -48 deg 07.038' S
Longitude=	11 deg 31.0' E
 Number Satellites=	8
Horizontal Dilution=	0.9
Altitude=	545.4M
Height/geoid=	46.9M 
Time Since last update=	0.0
Station Id=	0.0
GEO Cords(-4807.038,1131.0) at Time=12:35:19

2014-01-22 19:44:07,251 [Thread-3] DEBUG x.y - Received Stream=$GPGGA,123519,4807.038,S,01131.000,E,1,08,0.9,545.4,M,46.9,M,,*47
------Processed Result----
Global Positioning System Fix Data
Fix Taken at=	12:35:19UTC 
Latitude=	 -48 deg 07.038' S
Longitude=	11 deg 31.0' E
 Number Satellites=	8
Horizontal Dilution=	0.9
Altitude=	545.4M
Height/geoid=	46.9M 
Time Since last update=	0.0
Station Id=	0.0
GEO Cords(-4807.038,1131.0) at Time=12:35:19

2014-01-22 19:44:08,054 [Thread-3] DEBUG x.y - Received Stream=$GPGGA,123519,4807.038,S,01131.000,E,1,08,0.9,545.4,M,46.9,M,,*47
------Processed Result----
Global Positioning System Fix Data
Fix Taken at=	12:35:19UTC 
Latitude=	 -48 deg 07.038' S
Longitude=	11 deg 31.0' E
 Number Satellites=	8
Horizontal Dilution=	0.9
Altitude=	545.4M
Height/geoid=	46.9M 
Time Since last update=	0.0
Station Id=	0.0
GEO Cords(-4807.038,1131.0) at Time=12:35:19

2014-01-22 19:44:09,655 [Thread-3] DEBUG x.y - Received Stream=$GPGGA,123519,4807.038,N,01131.000,E,1,08,0.9,545.4,M,46.9,M,,*47
------Processed Result----
Global Positioning System Fix Data
Fix Taken at=	12:35:19UTC 
Latitude=	 48 deg 07.038' N
Longitude=	11 deg 31.0' E
 Number Satellites=	8
Horizontal Dilution=	0.9
Altitude=	545.4M
Height/geoid=	46.9M 
Time Since last update=	0.0
Station Id=	0.0
GEO Cords(4807.038,1131.0) at Time=12:35:19

2014-01-22 19:44:12,058 [Thread-3] DEBUG x.y - Received Stream=$GPGGA,123519,4807.038,N,01131.000,W,1,08,0.9,545.4,M,46.9,M,,*47
------Processed Result----
Global Positioning System Fix Data
Fix Taken at=	12:35:19UTC 
Latitude=	 48 deg 07.038' N
Longitude=	-11 deg 31.0' W
 Number Satellites=	8
Horizontal Dilution=	0.9
Altitude=	545.4M
Height/geoid=	46.9M 
Time Since last update=	0.0
Station Id=	0.0
GEO Cords(4807.038,-1131.0) at Time=12:35:19

2014-01-22 19:44:14,460 [Thread-3] DEBUG x.y - Received Stream=$GPGGA,123519,4807.038,S,01131.000,E,1,08,0.9,545.4,M,46.9,M,,*47
------Processed Result----
Global Positioning System Fix Data
Fix Taken at=	12:35:19UTC 
Latitude=	 -48 deg 07.038' S
Longitude=	11 deg 31.0' E
 Number Satellites=	8
Horizontal Dilution=	0.9
Altitude=	545.4M
Height/geoid=	46.9M 
Time Since last update=	0.0
Station Id=	0.0
GEO Cords(-4807.038,1131.0) at Time=12:35:19

2014-01-22 19:44:15,260 [Thread-3] DEBUG x.y - Received Stream=$GPGSA,A,3,04,05,,09,12,,,24,,,,,2.5,1.3,2.1*39
------Processed Result----


2014-01-22 19:44:16,061 [Thread-3] DEBUG x.y - Received Stream=$GPGGA,123519,4807.038,S,01131.000,E,1,08,0.9,545.4,M,46.9,M,,*47
------Processed Result----
Global Positioning System Fix Data
Fix Taken at=	12:35:19UTC 
Latitude=	 -48 deg 07.038' S
Longitude=	11 deg 31.0' E
 Number Satellites=	8
Horizontal Dilution=	0.9
Altitude=	545.4M
Height/geoid=	46.9M 
Time Since last update=	0.0
Station Id=	0.0
GEO Cords(-4807.038,1131.0) at Time=12:35:19

2014-01-22 19:44:16,863 [Thread-3] DEBUG x.y - Received Stream=$GPGGA,123519,4807.038,S,01131.000,E,1,08,0.9,545.4,M,46.9,M,,*47
------Processed Result----
Global Positioning System Fix Data
Fix Taken at=	12:35:19UTC 
Latitude=	 -48 deg 07.038' S
Longitude=	11 deg 31.0' E
 Number Satellites=	8
Horizontal Dilution=	0.9
Altitude=	545.4M
Height/geoid=	46.9M 
Time Since last update=	0.0
Station Id=	0.0
GEO Cords(-4807.038,1131.0) at Time=12:35:19

2014-01-22 19:44:17,669 [Thread-3] DEBUG x.y - Received Stream=$GPGGA,123519,4807.038,S,01131.000,E,1,08,0.9,545.4,M,46.9,M,,*47
------Processed Result----
Global Positioning System Fix Data
Fix Taken at=	12:35:19UTC 
Latitude=	 -48 deg 07.038' S
Longitude=	11 deg 31.0' E
 Number Satellites=	8
Horizontal Dilution=	0.9
Altitude=	545.4M
Height/geoid=	46.9M 
Time Since last update=	0.0
Station Id=	0.0
GEO Cords(-4807.038,1131.0) at Time=12:35:19

2014-01-22 19:44:18,470 [Thread-3] DEBUG x.y - Received Stream=$GPGGA,123519,4807.038,S,01131.000,E,1,08,0.9,545.4,M,46.9,M,,*47
------Processed Result----
Global Positioning System Fix Data
Fix Taken at=	12:35:19UTC 
Latitude=	 -48 deg 07.038' S
Longitude=	11 deg 31.0' E
 Number Satellites=	8
Horizontal Dilution=	0.9
Altitude=	545.4M
Height/geoid=	46.9M 
Time Since last update=	0.0
Station Id=	0.0
GEO Cords(-4807.038,1131.0) at Time=12:35:19

2014-01-22 19:44:19,272 [Thread-3] DEBUG x.y - Received Stream=$GPGGA,123519,4807.038,S,01131.000,E,1,08,0.9,545.4,M,46.9,M,,*47
------Processed Result----
Global Positioning System Fix Data
Fix Taken at=	12:35:19UTC 
Latitude=	 -48 deg 07.038' S
Longitude=	11 deg 31.0' E
 Number Satellites=	8
Horizontal Dilution=	0.9
Altitude=	545.4M
Height/geoid=	46.9M 
Time Since last update=	0.0
Station Id=	0.0
GEO Cords(-4807.038,1131.0) at Time=12:35:19

2014-01-22 19:44:20,073 [Thread-3] DEBUG x.y - Received Stream=$GPGGA,123519,4807.038,S,01131.000,E,1,08,0.9,545.4,M,46.9,M,,*47
------Processed Result----
Global Positioning System Fix Data
Fix Taken at=	12:35:19UTC 
Latitude=	 -48 deg 07.038' S
Longitude=	11 deg 31.0' E
 Number Satellites=	8
Horizontal Dilution=	0.9
Altitude=	545.4M
Height/geoid=	46.9M 
Time Since last update=	0.0
Station Id=	0.0
GEO Cords(-4807.038,1131.0) at Time=12:35:19

2014-01-22 19:44:20,874 [Thread-3] DEBUG x.y - Received Stream=$GPGGA,123519,4807.038,S,01131.000,E,1,08,0.9,545.4,M,46.9,M,,*47
------Processed Result----
Global Positioning System Fix Data
Fix Taken at=	12:35:19UTC 
Latitude=	 -48 deg 07.038' S
Longitude=	11 deg 31.0' E
 Number Satellites=	8
Horizontal Dilution=	0.9
Altitude=	545.4M
Height/geoid=	46.9M 
Time Since last update=	0.0
Station Id=	0.0
GEO Cords(-4807.038,1131.0) at Time=12:35:19

2014-01-22 19:44:21,675 [Thread-3] DEBUG x.y - Received Stream=$GPGGA,123519,4807.038,S,01131.000,E,1,08,0.9,545.4,M,46.9,M,,*47
------Processed Result----
Global Positioning System Fix Data
Fix Taken at=	12:35:19UTC 
Latitude=	 -48 deg 07.038' S
Longitude=	11 deg 31.0' E
 Number Satellites=	8
Horizontal Dilution=	0.9
Altitude=	545.4M
Height/geoid=	46.9M 
Time Since last update=	0.0
Station Id=	0.0
GEO Cords(-4807.038,1131.0) at Time=12:35:19

2014-01-22 19:44:22,475 [Thread-3] DEBUG x.y - Received Stream=$GPGGA,123519,4807.038,S,01131.000,E,1,08,0.9,545.4,M,46.9,M,,*47
------Processed Result----
Global Positioning System Fix Data
Fix Taken at=	12:35:19UTC 
Latitude=	 -48 deg 07.038' S
Longitude=	11 deg 31.0' E
 Number Satellites=	8
Horizontal Dilution=	0.9
Altitude=	545.4M
Height/geoid=	46.9M 
Time Since last update=	0.0
Station Id=	0.0
GEO Cords(-4807.038,1131.0) at Time=12:35:19

2014-01-22 19:44:23,277 [Thread-3] DEBUG x.y - Received Stream=$GPGGA,123519,4807.038,S,01131.000,E,1,08,0.9,545.4,M,46.9,M,,*47
------Processed Result----
Global Positioning System Fix Data
Fix Taken at=	12:35:19UTC 
Latitude=	 -48 deg 07.038' S
Longitude=	11 deg 31.0' E
 Number Satellites=	8
Horizontal Dilution=	0.9
Altitude=	545.4M
Height/geoid=	46.9M 
Time Since last update=	0.0
Station Id=	0.0
GEO Cords(-4807.038,1131.0) at Time=12:35:19

2014-01-22 19:44:24,078 [Thread-3] DEBUG x.y - Received Stream=$GPGGA,123519,4807.038,S,01131.000,E,1,08,0.9,545.4,M,46.9,M,,*47
------Processed Result----
Global Positioning System Fix Data
Fix Taken at=	12:35:19UTC 
Latitude=	 -48 deg 07.038' S
Longitude=	11 deg 31.0' E
 Number Satellites=	8
Horizontal Dilution=	0.9
Altitude=	545.4M
Height/geoid=	46.9M 
Time Since last update=	0.0
Station Id=	0.0
GEO Cords(-4807.038,1131.0) at Time=12:35:19

2014-01-22 19:44:25,680 [Thread-3] DEBUG x.y - Received Stream=$GPGGA,123519,4807.038,N,01131.000,E,1,08,0.9,545.4,M,46.9,M,,*47
------Processed Result----
Global Positioning System Fix Data
Fix Taken at=	12:35:19UTC 
Latitude=	 48 deg 07.038' N
Longitude=	11 deg 31.0' E
 Number Satellites=	8
Horizontal Dilution=	0.9
Altitude=	545.4M
Height/geoid=	46.9M 
Time Since last update=	0.0
Station Id=	0.0
GEO Cords(4807.038,1131.0) at Time=12:35:19

2014-01-22 19:44:28,083 [Thread-3] DEBUG x.y - Received Stream=$GPGGA,123519,4807.038,N,01131.000,W,1,08,0.9,545.4,M,46.9,M,,*47
------Processed Result----
Global Positioning System Fix Data
Fix Taken at=	12:35:19UTC 
Latitude=	 48 deg 07.038' N
Longitude=	-11 deg 31.0' W
 Number Satellites=	8
Horizontal Dilution=	0.9
Altitude=	545.4M
Height/geoid=	46.9M 
Time Since last update=	0.0
Station Id=	0.0
GEO Cords(4807.038,-1131.0) at Time=12:35:19

2014-01-22 19:44:30,486 [Thread-3] DEBUG x.y - Received Stream=$GPGGA,123519,4807.038,S,01131.000,E,1,08,0.9,545.4,M,46.9,M,,*47
------Processed Result----
Global Positioning System Fix Data
Fix Taken at=	12:35:19UTC 
Latitude=	 -48 deg 07.038' S
Longitude=	11 deg 31.0' E
 Number Satellites=	8
Horizontal Dilution=	0.9
Altitude=	545.4M
Height/geoid=	46.9M 
Time Since last update=	0.0
Station Id=	0.0
GEO Cords(-4807.038,1131.0) at Time=12:35:19

2014-01-22 19:44:31,287 [Thread-3] DEBUG x.y - Received Stream=$GPGSA,A,3,04,05,,09,12,,,24,,,,,2.5,1.3,2.1*39
------Processed Result----


2014-01-22 19:44:32,088 [Thread-3] DEBUG x.y - Received Stream=$GPGGA,123519,4807.038,S,01131.000,E,1,08,0.9,545.4,M,46.9,M,,*47
------Processed Result----
Global Positioning System Fix Data
Fix Taken at=	12:35:19UTC 
Latitude=	 -48 deg 07.038' S
Longitude=	11 deg 31.0' E
 Number Satellites=	8
Horizontal Dilution=	0.9
Altitude=	545.4M
Height/geoid=	46.9M 
Time Since last update=	0.0
Station Id=	0.0
GEO Cords(-4807.038,1131.0) at Time=12:35:19

2014-01-22 19:44:32,889 [Thread-3] DEBUG x.y - Received Stream=$GPGGA,123519,4807.038,S,01131.000,E,1,08,0.9,545.4,M,46.9,M,,*47
------Processed Result----
Global Positioning System Fix Data
Fix Taken at=	12:35:19UTC 
Latitude=	 -48 deg 07.038' S
Longitude=	11 deg 31.0' E
 Number Satellites=	8
Horizontal Dilution=	0.9
Altitude=	545.4M
Height/geoid=	46.9M 
Time Since last update=	0.0
Station Id=	0.0
GEO Cords(-4807.038,1131.0) at Time=12:35:19

2014-01-22 19:44:33,691 [Thread-3] DEBUG x.y - Received Stream=$GPGGA,123519,4807.038,S,01131.000,E,1,08,0.9,545.4,M,46.9,M,,*47
------Processed Result----
Global Positioning System Fix Data
Fix Taken at=	12:35:19UTC 
Latitude=	 -48 deg 07.038' S
Longitude=	11 deg 31.0' E
 Number Satellites=	8
Horizontal Dilution=	0.9
Altitude=	545.4M
Height/geoid=	46.9M 
Time Since last update=	0.0
Station Id=	0.0
GEO Cords(-4807.038,1131.0) at Time=12:35:19

2014-01-22 19:44:34,493 [Thread-3] DEBUG x.y - Received Stream=$GPGGA,123519,4807.038,S,01131.000,E,1,08,0.9,545.4,M,46.9,M,,*47
------Processed Result----
Global Positioning System Fix Data
Fix Taken at=	12:35:19UTC 
Latitude=	 -48 deg 07.038' S
Longitude=	11 deg 31.0' E
 Number Satellites=	8
Horizontal Dilution=	0.9
Altitude=	545.4M
Height/geoid=	46.9M 
Time Since last update=	0.0
Station Id=	0.0
GEO Cords(-4807.038,1131.0) at Time=12:35:19

2014-01-22 19:44:35,295 [Thread-3] DEBUG x.y - Received Stream=$GPGGA,123519,4807.038,S,01131.000,E,1,08,0.9,545.4,M,46.9,M,,*47
------Processed Result----
Global Positioning System Fix Data
Fix Taken at=	12:35:19UTC 
Latitude=	 -48 deg 07.038' S
Longitude=	11 deg 31.0' E
 Number Satellites=	8
Horizontal Dilution=	0.9
Altitude=	545.4M
Height/geoid=	46.9M 
Time Since last update=	0.0
Station Id=	0.0
GEO Cords(-4807.038,1131.0) at Time=12:35:19

2014-01-22 19:44:36,096 [Thread-3] DEBUG x.y - Received Stream=$GPGGA,123519,4807.038,S,01131.000,E,1,08,0.9,545.4,M,46.9,M,,*47
------Processed Result----
Global Positioning System Fix Data
Fix Taken at=	12:35:19UTC 
Latitude=	 -48 deg 07.038' S
Longitude=	11 deg 31.0' E
 Number Satellites=	8
Horizontal Dilution=	0.9
Altitude=	545.4M
Height/geoid=	46.9M 
Time Since last update=	0.0
Station Id=	0.0
GEO Cords(-4807.038,1131.0) at Time=12:35:19

2014-01-22 19:44:36,898 [Thread-3] DEBUG x.y - Received Stream=$GPGGA,123519,4807.038,S,01131.000,E,1,08,0.9,545.4,M,46.9,M,,*47
------Processed Result----
Global Positioning System Fix Data
Fix Taken at=	12:35:19UTC 
Latitude=	 -48 deg 07.038' S
Longitude=	11 deg 31.0' E
 Number Satellites=	8
Horizontal Dilution=	0.9
Altitude=	545.4M
Height/geoid=	46.9M 
Time Since last update=	0.0
Station Id=	0.0
GEO Cords(-4807.038,1131.0) at Time=12:35:19

2014-01-22 19:44:37,699 [Thread-3] DEBUG x.y - Received Stream=$GPGGA,123519,4807.038,S,01131.000,E,1,08,0.9,545.4,M,46.9,M,,*47
------Processed Result----
Global Positioning System Fix Data
Fix Taken at=	12:35:19UTC 
Latitude=	 -48 deg 07.038' S
Longitude=	11 deg 31.0' E
 Number Satellites=	8
Horizontal Dilution=	0.9
Altitude=	545.4M
Height/geoid=	46.9M 
Time Since last update=	0.0
Station Id=	0.0
GEO Cords(-4807.038,1131.0) at Time=12:35:19

2014-01-22 19:44:38,500 [Thread-3] DEBUG x.y - Received Stream=$GPGGA,123519,4807.038,S,01131.000,E,1,08,0.9,545.4,M,46.9,M,,*47
------Processed Result----
Global Positioning System Fix Data
Fix Taken at=	12:35:19UTC 
Latitude=	 -48 deg 07.038' S
Longitude=	11 deg 31.0' E
 Number Satellites=	8
Horizontal Dilution=	0.9
Altitude=	545.4M
Height/geoid=	46.9M 
Time Since last update=	0.0
Station Id=	0.0
GEO Cords(-4807.038,1131.0) at Time=12:35:19

2014-01-22 19:44:39,301 [Thread-3] DEBUG x.y - Received Stream=$GPGGA,123519,4807.038,S,01131.000,E,1,08,0.9,545.4,M,46.9,M,,*47
------Processed Result----
Global Positioning System Fix Data
Fix Taken at=	12:35:19UTC 
Latitude=	 -48 deg 07.038' S
Longitude=	11 deg 31.0' E
 Number Satellites=	8
Horizontal Dilution=	0.9
Altitude=	545.4M
Height/geoid=	46.9M 
Time Since last update=	0.0
Station Id=	0.0
GEO Cords(-4807.038,1131.0) at Time=12:35:19

2014-01-22 19:44:40,102 [Thread-3] DEBUG x.y - Received Stream=$GPGGA,123519,4807.038,S,01131.000,E,1,08,0.9,545.4,M,46.9,M,,*47
------Processed Result----
Global Positioning System Fix Data
Fix Taken at=	12:35:19UTC 
Latitude=	 -48 deg 07.038' S
Longitude=	11 deg 31.0' E
 Number Satellites=	8
Horizontal Dilution=	0.9
Altitude=	545.4M
Height/geoid=	46.9M 
Time Since last update=	0.0
Station Id=	0.0
GEO Cords(-4807.038,1131.0) at Time=12:35:19

2014-01-22 19:44:41,705 [Thread-3] DEBUG x.y - Received Stream=$GPGGA,123519,4807.038,N,01131.000,E,1,08,0.9,545.4,M,46.9,M,,*47
------Processed Result----
Global Positioning System Fix Data
Fix Taken at=	12:35:19UTC 
Latitude=	 48 deg 07.038' N
Longitude=	11 deg 31.0' E
 Number Satellites=	8
Horizontal Dilution=	0.9
Altitude=	545.4M
Height/geoid=	46.9M 
Time Since last update=	0.0
Station Id=	0.0
GEO Cords(4807.038,1131.0) at Time=12:35:19

2014-01-22 19:44:44,106 [Thread-3] DEBUG x.y - Received Stream=$GPGGA,123519,4807.038,N,01131.000,W,1,08,0.9,545.4,M,46.9,M,,*47
------Processed Result----
Global Positioning System Fix Data
Fix Taken at=	12:35:19UTC 
Latitude=	 48 deg 07.038' N
Longitude=	-11 deg 31.0' W
 Number Satellites=	8
Horizontal Dilution=	0.9
Altitude=	545.4M
Height/geoid=	46.9M 
Time Since last update=	0.0
Station Id=	0.0
GEO Cords(4807.038,-1131.0) at Time=12:35:19

2014-01-22 19:44:46,507 [Thread-3] DEBUG x.y - Received Stream=$GPGGA,123519,4807.038,S,01131.000,E,1,08,0.9,545.4,M,46.9,M,,*47
------Processed Result----
Global Positioning System Fix Data
Fix Taken at=	12:35:19UTC 
Latitude=	 -48 deg 07.038' S
Longitude=	11 deg 31.0' E
 Number Satellites=	8
Horizontal Dilution=	0.9
Altitude=	545.4M
Height/geoid=	46.9M 
Time Since last update=	0.0
Station Id=	0.0
GEO Cords(-4807.038,1131.0) at Time=12:35:19

2014-01-22 19:44:47,308 [Thread-3] DEBUG x.y - Received Stream=$GPGSA,A,3,04,05,,09,12,,,24,,,,,2.5,1.3,2.1*39
------Processed Result----


2014-01-22 19:44:48,109 [Thread-3] DEBUG x.y - Received Stream=$GPGGA,123519,4807.038,S,01131.000,E,1,08,0.9,545.4,M,46.9,M,,*47
------Processed Result----
Global Positioning System Fix Data
Fix Taken at=	12:35:19UTC 
Latitude=	 -48 deg 07.038' S
Longitude=	11 deg 31.0' E
 Number Satellites=	8
Horizontal Dilution=	0.9
Altitude=	545.4M
Height/geoid=	46.9M 
Time Since last update=	0.0
Station Id=	0.0
GEO Cords(-4807.038,1131.0) at Time=12:35:19

2014-01-22 19:44:48,911 [Thread-3] DEBUG x.y - Received Stream=$GPGGA,123519,4807.038,S,01131.000,E,1,08,0.9,545.4,M,46.9,M,,*47
------Processed Result----
Global Positioning System Fix Data
Fix Taken at=	12:35:19UTC 
Latitude=	 -48 deg 07.038' S
Longitude=	11 deg 31.0' E
 Number Satellites=	8
Horizontal Dilution=	0.9
Altitude=	545.4M
Height/geoid=	46.9M 
Time Since last update=	0.0
Station Id=	0.0
GEO Cords(-4807.038,1131.0) at Time=12:35:19

2014-01-22 19:44:49,712 [Thread-3] DEBUG x.y - Received Stream=$GPGGA,123519,4807.038,S,01131.000,E,1,08,0.9,545.4,M,46.9,M,,*47
------Processed Result----
Global Positioning System Fix Data
Fix Taken at=	12:35:19UTC 
Latitude=	 -48 deg 07.038' S
Longitude=	11 deg 31.0' E
 Number Satellites=	8
Horizontal Dilution=	0.9
Altitude=	545.4M
Height/geoid=	46.9M 
Time Since last update=	0.0
Station Id=	0.0
GEO Cords(-4807.038,1131.0) at Time=12:35:19

2014-01-22 19:44:50,513 [Thread-3] DEBUG x.y - Received Stream=$GPGGA,123519,4807.038,S,01131.000,E,1,08,0.9,545.4,M,46.9,M,,*47
------Processed Result----
Global Positioning System Fix Data
Fix Taken at=	12:35:19UTC 
Latitude=	 -48 deg 07.038' S
Longitude=	11 deg 31.0' E
 Number Satellites=	8
Horizontal Dilution=	0.9
Altitude=	545.4M
Height/geoid=	46.9M 
Time Since last update=	0.0
Station Id=	0.0
GEO Cords(-4807.038,1131.0) at Time=12:35:19

2014-01-22 19:44:51,314 [Thread-3] DEBUG x.y - Received Stream=$GPGGA,123519,4807.038,S,01131.000,E,1,08,0.9,545.4,M,46.9,M,,*47
------Processed Result----
Global Positioning System Fix Data
Fix Taken at=	12:35:19UTC 
Latitude=	 -48 deg 07.038' S
Longitude=	11 deg 31.0' E
 Number Satellites=	8
Horizontal Dilution=	0.9
Altitude=	545.4M
Height/geoid=	46.9M 
Time Since last update=	0.0
Station Id=	0.0
GEO Cords(-4807.038,1131.0) at Time=12:35:19

2014-01-22 19:44:52,115 [Thread-3] DEBUG x.y - Received Stream=$GPGGA,123519,4807.038,S,01131.000,E,1,08,0.9,545.4,M,46.9,M,,*47
------Processed Result----
Global Positioning System Fix Data
Fix Taken at=	12:35:19UTC 
Latitude=	 -48 deg 07.038' S
Longitude=	11 deg 31.0' E
 Number Satellites=	8
Horizontal Dilution=	0.9
Altitude=	545.4M
Height/geoid=	46.9M 
Time Since last update=	0.0
Station Id=	0.0
GEO Cords(-4807.038,1131.0) at Time=12:35:19

2014-01-22 19:44:52,916 [Thread-3] DEBUG x.y - Received Stream=$GPGGA,123519,4807.038,S,01131.000,E,1,08,0.9,545.4,M,46.9,M,,*47
------Processed Result----
Global Positioning System Fix Data
Fix Taken at=	12:35:19UTC 
Latitude=	 -48 deg 07.038' S
Longitude=	11 deg 31.0' E
 Number Satellites=	8
Horizontal Dilution=	0.9
Altitude=	545.4M
Height/geoid=	46.9M 
Time Since last update=	0.0
Station Id=	0.0
GEO Cords(-4807.038,1131.0) at Time=12:35:19

2014-01-22 19:44:53,717 [Thread-3] DEBUG x.y - Received Stream=$GPGGA,123519,4807.038,S,01131.000,E,1,08,0.9,545.4,M,46.9,M,,*47
------Processed Result----
Global Positioning System Fix Data
Fix Taken at=	12:35:19UTC 
Latitude=	 -48 deg 07.038' S
Longitude=	11 deg 31.0' E
 Number Satellites=	8
Horizontal Dilution=	0.9
Altitude=	545.4M
Height/geoid=	46.9M 
Time Since last update=	0.0
Station Id=	0.0
GEO Cords(-4807.038,1131.0) at Time=12:35:19

2014-01-22 19:44:54,518 [Thread-3] DEBUG x.y - Received Stream=$GPGGA,123519,4807.038,S,01131.000,E,1,08,0.9,545.4,M,46.9,M,,*47
------Processed Result----
Global Positioning System Fix Data
Fix Taken at=	12:35:19UTC 
Latitude=	 -48 deg 07.038' S
Longitude=	11 deg 31.0' E
 Number Satellites=	8
Horizontal Dilution=	0.9
Altitude=	545.4M
Height/geoid=	46.9M 
Time Since last update=	0.0
Station Id=	0.0
GEO Cords(-4807.038,1131.0) at Time=12:35:19

2014-01-22 19:44:55,320 [Thread-3] DEBUG x.y - Received Stream=$GPGGA,123519,4807.038,S,01131.000,E,1,08,0.9,545.4,M,46.9,M,,*47
------Processed Result----
Global Positioning System Fix Data
Fix Taken at=	12:35:19UTC 
Latitude=	 -48 deg 07.038' S
Longitude=	11 deg 31.0' E
 Number Satellites=	8
Horizontal Dilution=	0.9
Altitude=	545.4M
Height/geoid=	46.9M 
Time Since last update=	0.0
Station Id=	0.0
GEO Cords(-4807.038,1131.0) at Time=12:35:19

2014-01-22 19:44:56,122 [Thread-3] DEBUG x.y - Received Stream=$GPGGA,123519,4807.038,S,01131.000,E,1,08,0.9,545.4,M,46.9,M,,*47
------Processed Result----
Global Positioning System Fix Data
Fix Taken at=	12:35:19UTC 
Latitude=	 -48 deg 07.038' S
Longitude=	11 deg 31.0' E
 Number Satellites=	8
Horizontal Dilution=	0.9
Altitude=	545.4M
Height/geoid=	46.9M 
Time Since last update=	0.0
Station Id=	0.0
GEO Cords(-4807.038,1131.0) at Time=12:35:19

2014-01-22 19:44:57,723 [Thread-3] DEBUG x.y - Received Stream=$GPGGA,123519,4807.038,N,01131.000,E,1,08,0.9,545.4,M,46.9,M,,*47
------Processed Result----
Global Positioning System Fix Data
Fix Taken at=	12:35:19UTC 
Latitude=	 48 deg 07.038' N
Longitude=	11 deg 31.0' E
 Number Satellites=	8
Horizontal Dilution=	0.9
Altitude=	545.4M
Height/geoid=	46.9M 
Time Since last update=	0.0
Station Id=	0.0
GEO Cords(4807.038,1131.0) at Time=12:35:19

2014-01-22 19:45:00,125 [Thread-3] DEBUG x.y - Received Stream=$GPGGA,123519,4807.038,N,01131.000,W,1,08,0.9,545.4,M,46.9,M,,*47
------Processed Result----
Global Positioning System Fix Data
Fix Taken at=	12:35:19UTC 
Latitude=	 48 deg 07.038' N
Longitude=	-11 deg 31.0' W
 Number Satellites=	8
Horizontal Dilution=	0.9
Altitude=	545.4M
Height/geoid=	46.9M 
Time Since last update=	0.0
Station Id=	0.0
GEO Cords(4807.038,-1131.0) at Time=12:35:19

2014-01-22 19:45:02,526 [Thread-3] DEBUG x.y - Received Stream=$GPGGA,123519,4807.038,S,01131.000,E,1,08,0.9,545.4,M,46.9,M,,*47
------Processed Result----
Global Positioning System Fix Data
Fix Taken at=	12:35:19UTC 
Latitude=	 -48 deg 07.038' S
Longitude=	11 deg 31.0' E
 Number Satellites=	8
Horizontal Dilution=	0.9
Altitude=	545.4M
Height/geoid=	46.9M 
Time Since last update=	0.0
Station Id=	0.0
GEO Cords(-4807.038,1131.0) at Time=12:35:19

2014-01-22 19:45:03,327 [Thread-3] DEBUG x.y - Received Stream=$GPGSA,A,3,04,05,,09,12,,,24,,,,,2.5,1.3,2.1*39
------Processed Result----


2014-01-22 19:45:04,128 [Thread-3] DEBUG x.y - Received Stream=$GPGGA,123519,4807.038,S,01131.000,E,1,08,0.9,545.4,M,46.9,M,,*47
------Processed Result----
Global Positioning System Fix Data
Fix Taken at=	12:35:19UTC 
Latitude=	 -48 deg 07.038' S
Longitude=	11 deg 31.0' E
 Number Satellites=	8
Horizontal Dilution=	0.9
Altitude=	545.4M
Height/geoid=	46.9M 
Time Since last update=	0.0
Station Id=	0.0
GEO Cords(-4807.038,1131.0) at Time=12:35:19

2014-01-22 19:45:04,929 [Thread-3] DEBUG x.y - Received Stream=$GPGGA,123519,4807.038,S,01131.000,E,1,08,0.9,545.4,M,46.9,M,,*47
------Processed Result----
Global Positioning System Fix Data
Fix Taken at=	12:35:19UTC 
Latitude=	 -48 deg 07.038' S
Longitude=	11 deg 31.0' E
 Number Satellites=	8
Horizontal Dilution=	0.9
Altitude=	545.4M
Height/geoid=	46.9M 
Time Since last update=	0.0
Station Id=	0.0
GEO Cords(-4807.038,1131.0) at Time=12:35:19

2014-01-22 19:45:05,729 [Thread-3] DEBUG x.y - Received Stream=$GPGGA,123519,4807.038,S,01131.000,E,1,08,0.9,545.4,M,46.9,M,,*47
------Processed Result----
Global Positioning System Fix Data
